header: 
  seq: 21731
  stamp: 
    secs: 724
    nsecs: 576000000
  frame_id: "odom"
child_frame_id: "base_footprint"
pose: 
  pose: 
    position: 
      x: 0.9132900371418953
      y: 3.4825082112440815
      z: -0.0010079240643208684
    orientation: 
      x: -8.558360323246615e-05
      y: 0.0015890442190399678
      z: 0.05342570087052652
      w: 0.9985705593999905
  covariance: [1e-05, 0.0, 0.0, 0.0, 0.0, 0.0, 0.0, 1e-05, 0.0, 0.0, 0.0, 0.0, 0.0, 0.0, 1000000000000.0, 0.0, 0.0, 0.0, 0.0, 0.0, 0.0, 1000000000000.0, 0.0, 0.0, 0.0, 0.0, 0.0, 0.0, 1000000000000.0, 0.0, 0.0, 0.0, 0.0, 0.0, 0.0, 0.001]
twist: 
  twist: 
    linear: 
      x: -2.4081211808366082e-05
      y: 1.3129181464706805e-06
      z: 0.0
    angular: 
      x: 0.0
      y: 0.0
      z: 0.0006974562881770157
  covariance: [0.0, 0.0, 0.0, 0.0, 0.0, 0.0, 0.0, 0.0, 0.0, 0.0, 0.0, 0.0, 0.0, 0.0, 0.0, 0.0, 0.0, 0.0, 0.0, 0.0, 0.0, 0.0, 0.0, 0.0, 0.0, 0.0, 0.0, 0.0, 0.0, 0.0, 0.0, 0.0, 0.0, 0.0, 0.0, 0.0]
---
header: 
  seq: 21732
  stamp: 
    secs: 724
    nsecs: 610000000
  frame_id: "odom"
child_frame_id: "base_footprint"
pose: 
  pose: 
    position: 
      x: 0.9132892222296917
      y: 3.482508120427267
      z: -0.001007924146980952
    orientation: 
      x: -8.55996255405056e-05
      y: 0.0015890436139812806
      z: 0.05343578073325018
      w: 0.9985700200539396
  covariance: [1e-05, 0.0, 0.0, 0.0, 0.0, 0.0, 0.0, 1e-05, 0.0, 0.0, 0.0, 0.0, 0.0, 0.0, 1000000000000.0, 0.0, 0.0, 0.0, 0.0, 0.0, 0.0, 1000000000000.0, 0.0, 0.0, 0.0, 0.0, 0.0, 0.0, 1000000000000.0, 0.0, 0.0, 0.0, 0.0, 0.0, 0.0, 0.001]
twist: 
  twist: 
    linear: 
      x: -2.4114913813383554e-05
      y: 1.3128344353139617e-06
      z: 0.0
    angular: 
      x: 0.0
      y: 0.0
      z: 0.0006975251687813227
  covariance: [0.0, 0.0, 0.0, 0.0, 0.0, 0.0, 0.0, 0.0, 0.0, 0.0, 0.0, 0.0, 0.0, 0.0, 0.0, 0.0, 0.0, 0.0, 0.0, 0.0, 0.0, 0.0, 0.0, 0.0, 0.0, 0.0, 0.0, 0.0, 0.0, 0.0, 0.0, 0.0, 0.0, 0.0, 0.0, 0.0]
---
header: 
  seq: 21733
  stamp: 
    secs: 724
    nsecs: 643000000
  frame_id: "odom"
child_frame_id: "base_footprint"
pose: 
  pose: 
    position: 
      x: 0.9132884302741795
      y: 3.4825080321562423
      z: -0.0010079242272389433
    orientation: 
      x: -8.561517845272365e-05
      y: 0.0015890430265510563
      z: 0.05344556525298526
      w: 0.9985694964132893
  covariance: [1e-05, 0.0, 0.0, 0.0, 0.0, 0.0, 0.0, 1e-05, 0.0, 0.0, 0.0, 0.0, 0.0, 0.0, 1000000000000.0, 0.0, 0.0, 0.0, 0.0, 0.0, 0.0, 1000000000000.0, 0.0, 0.0, 0.0, 0.0, 0.0, 0.0, 1000000000000.0, 0.0, 0.0, 0.0, 0.0, 0.0, 0.0, 0.001]
twist: 
  twist: 
    linear: 
      x: -2.4147624631934288e-05
      y: 1.3127532348627316e-06
      z: 0.0
    angular: 
      x: 0.0
      y: 0.0
      z: 0.0006975921078331376
  covariance: [0.0, 0.0, 0.0, 0.0, 0.0, 0.0, 0.0, 0.0, 0.0, 0.0, 0.0, 0.0, 0.0, 0.0, 0.0, 0.0, 0.0, 0.0, 0.0, 0.0, 0.0, 0.0, 0.0, 0.0, 0.0, 0.0, 0.0, 0.0, 0.0, 0.0, 0.0, 0.0, 0.0, 0.0, 0.0, 0.0]
---
header: 
  seq: 21734
  stamp: 
    secs: 724
    nsecs: 676000000
  frame_id: "odom"
child_frame_id: "base_footprint"
pose: 
  pose: 
    position: 
      x: 0.9132876373224448
      y: 3.4825079437617514
      z: -0.0010079243075256303
    orientation: 
      x: -8.563073318796767e-05
      y: 0.0015890424389558818
      z: 0.05345535088076279
      w: 0.9985689726171745
  covariance: [1e-05, 0.0, 0.0, 0.0, 0.0, 0.0, 0.0, 1e-05, 0.0, 0.0, 0.0, 0.0, 0.0, 0.0, 1000000000000.0, 0.0, 0.0, 0.0, 0.0, 0.0, 0.0, 1000000000000.0, 0.0, 0.0, 0.0, 0.0, 0.0, 0.0, 1000000000000.0, 0.0, 0.0, 0.0, 0.0, 0.0, 0.0, 0.001]
twist: 
  twist: 
    linear: 
      x: -2.418033556664509e-05
      y: 1.3126721112584292e-06
      z: 0.0
    angular: 
      x: 0.0
      y: 0.0
      z: 0.0006976591307473591
  covariance: [0.0, 0.0, 0.0, 0.0, 0.0, 0.0, 0.0, 0.0, 0.0, 0.0, 0.0, 0.0, 0.0, 0.0, 0.0, 0.0, 0.0, 0.0, 0.0, 0.0, 0.0, 0.0, 0.0, 0.0, 0.0, 0.0, 0.0, 0.0, 0.0, 0.0, 0.0, 0.0, 0.0, 0.0, 0.0, 0.0]
---
header: 
  seq: 21735
  stamp: 
    secs: 724
    nsecs: 710000000
  frame_id: "odom"
child_frame_id: "base_footprint"
pose: 
  pose: 
    position: 
      x: 0.9132868192999036
      y: 3.48250785255946
      z: -0.0010079243902752846
    orientation: 
      x: -8.56467611876035e-05
      y: 0.0015890418333821704
      z: 0.053465434202938915
      w: 0.9985684327857433
  covariance: [1e-05, 0.0, 0.0, 0.0, 0.0, 0.0, 0.0, 1e-05, 0.0, 0.0, 0.0, 0.0, 0.0, 0.0, 1000000000000.0, 0.0, 0.0, 0.0, 0.0, 0.0, 0.0, 1000000000000.0, 0.0, 0.0, 0.0, 0.0, 0.0, 0.0, 1000000000000.0, 0.0, 0.0, 0.0, 0.0, 0.0, 0.0, 0.001]
twist: 
  twist: 
    linear: 
      x: -2.421403799300384e-05
      y: 1.3125886924607084e-06
      z: 0.0
    angular: 
      x: 0.0
      y: 0.0
      z: 0.0006977282713614776
  covariance: [0.0, 0.0, 0.0, 0.0, 0.0, 0.0, 0.0, 0.0, 0.0, 0.0, 0.0, 0.0, 0.0, 0.0, 0.0, 0.0, 0.0, 0.0, 0.0, 0.0, 0.0, 0.0, 0.0, 0.0, 0.0, 0.0, 0.0, 0.0, 0.0, 0.0, 0.0, 0.0, 0.0, 0.0, 0.0, 0.0]
---
header: 
  seq: 21736
  stamp: 
    secs: 724
    nsecs: 743000000
  frame_id: "odom"
child_frame_id: "base_footprint"
pose: 
  pose: 
    position: 
      x: 0.9132860243255274
      y: 3.482507763914166
      z: -0.001007924470620248
    orientation: 
      x: -8.566231963035977e-05
      y: 0.0015890412454515697
      z: 0.05347522208418545
      w: 0.9985679086736838
  covariance: [1e-05, 0.0, 0.0, 0.0, 0.0, 0.0, 0.0, 1e-05, 0.0, 0.0, 0.0, 0.0, 0.0, 0.0, 1000000000000.0, 0.0, 0.0, 0.0, 0.0, 0.0, 0.0, 1000000000000.0, 0.0, 0.0, 0.0, 0.0, 0.0, 0.0, 1000000000000.0, 0.0, 0.0, 0.0, 0.0, 0.0, 0.0, 0.001]
twist: 
  twist: 
    linear: 
      x: -2.424674922074004e-05
      y: 1.3125072296293218e-06
      z: 0.0
    angular: 
      x: 0.0
      y: 0.0
      z: 0.0006977954633734227
  covariance: [0.0, 0.0, 0.0, 0.0, 0.0, 0.0, 0.0, 0.0, 0.0, 0.0, 0.0, 0.0, 0.0, 0.0, 0.0, 0.0, 0.0, 0.0, 0.0, 0.0, 0.0, 0.0, 0.0, 0.0, 0.0, 0.0, 0.0, 0.0, 0.0, 0.0, 0.0, 0.0, 0.0, 0.0, 0.0, 0.0]
---
header: 
  seq: 21737
  stamp: 
    secs: 724
    nsecs: 776000000
  frame_id: "odom"
child_frame_id: "base_footprint"
pose: 
  pose: 
    position: 
      x: 0.9132852283549204
      y: 3.4825076751452784
      z: -0.0010079245509939279
    orientation: 
      x: -8.567787990219626e-05
      y: 0.0015890406573556594
      z: 0.05348501107722268
      w: 0.9985673844058596
  covariance: [1e-05, 0.0, 0.0, 0.0, 0.0, 0.0, 0.0, 1e-05, 0.0, 0.0, 0.0, 0.0, 0.0, 0.0, 1000000000000.0, 0.0, 0.0, 0.0, 0.0, 0.0, 0.0, 1000000000000.0, 0.0, 0.0, 0.0, 0.0, 0.0, 0.0, 1000000000000.0, 0.0, 0.0, 0.0, 0.0, 0.0, 0.0, 0.001]
twist: 
  twist: 
    linear: 
      x: -2.427945913315613e-05
      y: 1.3124259988254016e-06
      z: 0.0
    angular: 
      x: 0.0
      y: 0.0
      z: 0.0006978627389484911
  covariance: [0.0, 0.0, 0.0, 0.0, 0.0, 0.0, 0.0, 0.0, 0.0, 0.0, 0.0, 0.0, 0.0, 0.0, 0.0, 0.0, 0.0, 0.0, 0.0, 0.0, 0.0, 0.0, 0.0, 0.0, 0.0, 0.0, 0.0, 0.0, 0.0, 0.0, 0.0, 0.0, 0.0, 0.0, 0.0, 0.0]
---
header: 
  seq: 21738
  stamp: 
    secs: 724
    nsecs: 810000000
  frame_id: "odom"
child_frame_id: "base_footprint"
pose: 
  pose: 
    position: 
      x: 0.9132844072220182
      y: 3.4825075835571115
      z: -0.0010079246338332605
    orientation: 
      x: -8.569391361271647e-05
      y: 0.0015890400512656255
      z: 0.05349509787055821
      w: 0.9985668440881103
  covariance: [1e-05, 0.0, 0.0, 0.0, 0.0, 0.0, 0.0, 1e-05, 0.0, 0.0, 0.0, 0.0, 0.0, 0.0, 1000000000000.0, 0.0, 0.0, 0.0, 0.0, 0.0, 0.0, 1000000000000.0, 0.0, 0.0, 0.0, 0.0, 0.0, 0.0, 1000000000000.0, 0.0, 0.0, 0.0, 0.0, 0.0, 0.0, 0.001]
twist: 
  twist: 
    linear: 
      x: -2.431316199012468e-05
      y: 1.3123421116081676e-06
      z: 0.0
    angular: 
      x: 0.0
      y: 0.0
      z: 0.0006979321399798169
  covariance: [0.0, 0.0, 0.0, 0.0, 0.0, 0.0, 0.0, 0.0, 0.0, 0.0, 0.0, 0.0, 0.0, 0.0, 0.0, 0.0, 0.0, 0.0, 0.0, 0.0, 0.0, 0.0, 0.0, 0.0, 0.0, 0.0, 0.0, 0.0, 0.0, 0.0, 0.0, 0.0, 0.0, 0.0, 0.0, 0.0]
---
header: 
  seq: 21739
  stamp: 
    secs: 724
    nsecs: 843000000
  frame_id: "odom"
child_frame_id: "base_footprint"
pose: 
  pose: 
    position: 
      x: 0.913283609228753
      y: 3.4825074945371615
      z: -0.0010079247142653347
    orientation: 
      x: -8.570947760451807e-05
      y: 0.0015890394628336568
      z: 0.05350488912467572
      w: 0.9985663195037309
  covariance: [1e-05, 0.0, 0.0, 0.0, 0.0, 0.0, 0.0, 1e-05, 0.0, 0.0, 0.0, 0.0, 0.0, 0.0, 1000000000000.0, 0.0, 0.0, 0.0, 0.0, 0.0, 0.0, 1000000000000.0, 0.0, 0.0, 0.0, 0.0, 0.0, 0.0, 1000000000000.0, 0.0, 0.0, 0.0, 0.0, 0.0, 0.0, 0.001]
twist: 
  twist: 
    linear: 
      x: -2.4345873662869637e-05
      y: 1.3122606698394915e-06
      z: 0.0
    angular: 
      x: 0.0
      y: 0.0
      z: 0.0006979995846382783
  covariance: [0.0, 0.0, 0.0, 0.0, 0.0, 0.0, 0.0, 0.0, 0.0, 0.0, 0.0, 0.0, 0.0, 0.0, 0.0, 0.0, 0.0, 0.0, 0.0, 0.0, 0.0, 0.0, 0.0, 0.0, 0.0, 0.0, 0.0, 0.0, 0.0, 0.0, 0.0, 0.0, 0.0, 0.0, 0.0, 0.0]
---
header: 
  seq: 21740
  stamp: 
    secs: 724
    nsecs: 876000000
  frame_id: "odom"
child_frame_id: "base_footprint"
pose: 
  pose: 
    position: 
      x: 0.9132828102392482
      y: 3.4825074053934904
      z: -0.001007924794726188
    orientation: 
      x: -8.572504343155945e-05
      y: 0.001589038874235988
      z: 0.05351468149433256
      w: 0.9985657947632863
  covariance: [1e-05, 0.0, 0.0, 0.0, 0.0, 0.0, 0.0, 1e-05, 0.0, 0.0, 0.0, 0.0, 0.0, 0.0, 1000000000000.0, 0.0, 0.0, 0.0, 0.0, 0.0, 0.0, 1000000000000.0, 0.0, 0.0, 0.0, 0.0, 0.0, 0.0, 1000000000000.0, 0.0, 0.0, 0.0, 0.0, 0.0, 0.0, 0.001]
twist: 
  twist: 
    linear: 
      x: -2.4378585430377576e-05
      y: 1.3121794154801335e-06
      z: 0.0
    angular: 
      x: 0.0
      y: 0.0
      z: 0.0006980671125552935
  covariance: [0.0, 0.0, 0.0, 0.0, 0.0, 0.0, 0.0, 0.0, 0.0, 0.0, 0.0, 0.0, 0.0, 0.0, 0.0, 0.0, 0.0, 0.0, 0.0, 0.0, 0.0, 0.0, 0.0, 0.0, 0.0, 0.0, 0.0, 0.0, 0.0, 0.0, 0.0, 0.0, 0.0, 0.0, 0.0, 0.0]
---
header: 
  seq: 21741
  stamp: 
    secs: 724
    nsecs: 910000000
  frame_id: "odom"
child_frame_id: "base_footprint"
pose: 
  pose: 
    position: 
      x: 0.9132819859960168
      y: 3.4825073134189446
      z: -0.0010079248776568121
    orientation: 
      x: -8.574108285045496e-05
      y: 0.0015890382676380403
      z: 0.05352477177081866
      w: 0.9985652539582641
  covariance: [1e-05, 0.0, 0.0, 0.0, 0.0, 0.0, 0.0, 1e-05, 0.0, 0.0, 0.0, 0.0, 0.0, 0.0, 1000000000000.0, 0.0, 0.0, 0.0, 0.0, 0.0, 0.0, 1000000000000.0, 0.0, 0.0, 0.0, 0.0, 0.0, 0.0, 1000000000000.0, 0.0, 0.0, 0.0, 0.0, 0.0, 0.0, 0.001]
twist: 
  twist: 
    linear: 
      x: -2.4412277038530516e-05
      y: 1.3119721234622321e-06
      z: 0.0
    angular: 
      x: 0.0
      y: 0.0
      z: 0.0006981368818379766
  covariance: [0.0, 0.0, 0.0, 0.0, 0.0, 0.0, 0.0, 0.0, 0.0, 0.0, 0.0, 0.0, 0.0, 0.0, 0.0, 0.0, 0.0, 0.0, 0.0, 0.0, 0.0, 0.0, 0.0, 0.0, 0.0, 0.0, 0.0, 0.0, 0.0, 0.0, 0.0, 0.0, 0.0, 0.0, 0.0, 0.0]
---
header: 
  seq: 21742
  stamp: 
    secs: 724
    nsecs: 943000000
  frame_id: "odom"
child_frame_id: "base_footprint"
pose: 
  pose: 
    position: 
      x: 0.9132811849847357
      y: 3.482507224023593
      z: -0.001007924958156211
    orientation: 
      x: -8.575665242966721e-05
      y: 0.0015890376786479338
      z: 0.05353456641339473
      w: 0.9985647289004265
  covariance: [1e-05, 0.0, 0.0, 0.0, 0.0, 0.0, 0.0, 1e-05, 0.0, 0.0, 0.0, 0.0, 0.0, 0.0, 1000000000000.0, 0.0, 0.0, 0.0, 0.0, 0.0, 0.0, 1000000000000.0, 0.0, 0.0, 0.0, 0.0, 0.0, 0.0, 1000000000000.0, 0.0, 0.0, 0.0, 0.0, 0.0, 0.0, 0.001]
twist: 
  twist: 
    linear: 
      x: -2.444497120324723e-05
      y: 1.3116113465492921e-06
      z: 0.0
    angular: 
      x: 0.0
      y: 0.0
      z: 0.0006982047312868992
  covariance: [0.0, 0.0, 0.0, 0.0, 0.0, 0.0, 0.0, 0.0, 0.0, 0.0, 0.0, 0.0, 0.0, 0.0, 0.0, 0.0, 0.0, 0.0, 0.0, 0.0, 0.0, 0.0, 0.0, 0.0, 0.0, 0.0, 0.0, 0.0, 0.0, 0.0, 0.0, 0.0, 0.0, 0.0, 0.0, 0.0]
---
header: 
  seq: 21743
  stamp: 
    secs: 724
    nsecs: 976000000
  frame_id: "odom"
child_frame_id: "base_footprint"
pose: 
  pose: 
    position: 
      x: 0.9132803829769361
      y: 3.482507134504343
      z: -0.0010079250387103299
    orientation: 
      x: -8.57722237790998e-05
      y: 0.001589037089579434
      z: 0.053544362175357386
      w: 0.9985642036862166
  covariance: [1e-05, 0.0, 0.0, 0.0, 0.0, 0.0, 0.0, 1e-05, 0.0, 0.0, 0.0, 0.0, 0.0, 0.0, 1000000000000.0, 0.0, 0.0, 0.0, 0.0, 0.0, 0.0, 1000000000000.0, 0.0, 0.0, 0.0, 0.0, 0.0, 0.0, 1000000000000.0, 0.0, 0.0, 0.0, 0.0, 0.0, 0.0, 0.001]
twist: 
  twist: 
    linear: 
      x: -2.447767948913367e-05
      y: 1.3112514632819398e-06
      z: 0.0
    angular: 
      x: 0.0
      y: 0.0
      z: 0.0006982725849099395
  covariance: [0.0, 0.0, 0.0, 0.0, 0.0, 0.0, 0.0, 0.0, 0.0, 0.0, 0.0, 0.0, 0.0, 0.0, 0.0, 0.0, 0.0, 0.0, 0.0, 0.0, 0.0, 0.0, 0.0, 0.0, 0.0, 0.0, 0.0, 0.0, 0.0, 0.0, 0.0, 0.0, 0.0, 0.0, 0.0, 0.0]
---
header: 
  seq: 21744
  stamp: 
    secs: 725
    nsecs:  10000000
  frame_id: "odom"
child_frame_id: "base_footprint"
pose: 
  pose: 
    position: 
      x: 0.9132795556242341
      y: 3.4825070421428266
      z: -0.0010079251217200193
    orientation: 
      x: -8.57882689634012e-05
      y: 0.0015890364824334732
      z: 0.053554455953083856
      w: 0.9985636623926388
  covariance: [1e-05, 0.0, 0.0, 0.0, 0.0, 0.0, 0.0, 1e-05, 0.0, 0.0, 0.0, 0.0, 0.0, 0.0, 1000000000000.0, 0.0, 0.0, 0.0, 0.0, 0.0, 0.0, 1000000000000.0, 0.0, 0.0, 0.0, 0.0, 0.0, 0.0, 1000000000000.0, 0.0, 0.0, 0.0, 0.0, 0.0, 0.0, 0.001]
twist: 
  twist: 
    linear: 
      x: -2.4511379211740015e-05
      y: 1.3108808649464675e-06
      z: 0.0
    angular: 
      x: 0.0
      y: 0.0
      z: 0.0006983425735750733
  covariance: [0.0, 0.0, 0.0, 0.0, 0.0, 0.0, 0.0, 0.0, 0.0, 0.0, 0.0, 0.0, 0.0, 0.0, 0.0, 0.0, 0.0, 0.0, 0.0, 0.0, 0.0, 0.0, 0.0, 0.0, 0.0, 0.0, 0.0, 0.0, 0.0, 0.0, 0.0, 0.0, 0.0, 0.0, 0.0, 0.0]
---
header: 
  seq: 21745
  stamp: 
    secs: 725
    nsecs:  43000000
  frame_id: "odom"
child_frame_id: "base_footprint"
pose: 
  pose: 
    position: 
      x: 0.9132787515940096
      y: 3.482506952371987
      z: -0.0010079252023256248
    orientation: 
      x: -8.580384408374717e-05
      y: 0.0015890358930029799
      z: 0.05356425399466401
      w: 0.9985631368604724
  covariance: [1e-05, 0.0, 0.0, 0.0, 0.0, 0.0, 0.0, 1e-05, 0.0, 0.0, 0.0, 0.0, 0.0, 0.0, 1000000000000.0, 0.0, 0.0, 0.0, 0.0, 0.0, 0.0, 1000000000000.0, 0.0, 0.0, 0.0, 0.0, 0.0, 0.0, 1000000000000.0, 0.0, 0.0, 0.0, 0.0, 0.0, 0.0, 0.001]
twist: 
  twist: 
    linear: 
      x: -2.454408204125888e-05
      y: 1.310520933436714e-06
      z: 0.0
    angular: 
      x: 0.0
      y: 0.0
      z: 0.0006984106371773349
  covariance: [0.0, 0.0, 0.0, 0.0, 0.0, 0.0, 0.0, 0.0, 0.0, 0.0, 0.0, 0.0, 0.0, 0.0, 0.0, 0.0, 0.0, 0.0, 0.0, 0.0, 0.0, 0.0, 0.0, 0.0, 0.0, 0.0, 0.0, 0.0, 0.0, 0.0, 0.0, 0.0, 0.0, 0.0, 0.0, 0.0]
---
header: 
  seq: 21746
  stamp: 
    secs: 725
    nsecs:  76000000
  frame_id: "odom"
child_frame_id: "base_footprint"
pose: 
  pose: 
    position: 
      x: 0.9132779465677037
      y: 3.482506862477172
      z: -0.0010079252829568487
    orientation: 
      x: -8.581942106360142e-05
      y: 0.0015890353033950456
      z: 0.0535740531610787
      w: 0.9985626111715408
  covariance: [1e-05, 0.0, 0.0, 0.0, 0.0, 0.0, 0.0, 1e-05, 0.0, 0.0, 0.0, 0.0, 0.0, 0.0, 1000000000000.0, 0.0, 0.0, 0.0, 0.0, 0.0, 0.0, 1000000000000.0, 0.0, 0.0, 0.0, 0.0, 0.0, 0.0, 1000000000000.0, 0.0, 0.0, 0.0, 0.0, 0.0, 0.0, 0.001]
twist: 
  twist: 
    linear: 
      x: -2.4576792674083015e-05
      y: 1.3101612255921167e-06
      z: 0.0
    angular: 
      x: 0.0
      y: 0.0
      z: 0.0006984787252410496
  covariance: [0.0, 0.0, 0.0, 0.0, 0.0, 0.0, 0.0, 0.0, 0.0, 0.0, 0.0, 0.0, 0.0, 0.0, 0.0, 0.0, 0.0, 0.0, 0.0, 0.0, 0.0, 0.0, 0.0, 0.0, 0.0, 0.0, 0.0, 0.0, 0.0, 0.0, 0.0, 0.0, 0.0, 0.0, 0.0, 0.0]
---
header: 
  seq: 21747
  stamp: 
    secs: 725
    nsecs: 110000000
  frame_id: "odom"
child_frame_id: "base_footprint"
pose: 
  pose: 
    position: 
      x: 0.9132771161046883
      y: 3.4825067697285417
      z: -0.0010079253660626453
    orientation: 
      x: -8.583547200781754e-05
      y: 0.0015890346957490593
      z: 0.05358415044918021
      w: 0.998562069388602
  covariance: [1e-05, 0.0, 0.0, 0.0, 0.0, 0.0, 0.0, 1e-05, 0.0, 0.0, 0.0, 0.0, 0.0, 0.0, 1000000000000.0, 0.0, 0.0, 0.0, 0.0, 0.0, 0.0, 1000000000000.0, 0.0, 0.0, 0.0, 0.0, 0.0, 0.0, 1000000000000.0, 0.0, 0.0, 0.0, 0.0, 0.0, 0.0, 0.001]
twist: 
  twist: 
    linear: 
      x: -2.4610486712542038e-05
      y: 1.3097907050513605e-06
      z: 0.0
    angular: 
      x: 0.0
      y: 0.0
      z: 0.000698549014987873
  covariance: [0.0, 0.0, 0.0, 0.0, 0.0, 0.0, 0.0, 0.0, 0.0, 0.0, 0.0, 0.0, 0.0, 0.0, 0.0, 0.0, 0.0, 0.0, 0.0, 0.0, 0.0, 0.0, 0.0, 0.0, 0.0, 0.0, 0.0, 0.0, 0.0, 0.0, 0.0, 0.0, 0.0, 0.0, 0.0, 0.0]
---
header: 
  seq: 21748
  stamp: 
    secs: 725
    nsecs: 143000000
  frame_id: "odom"
child_frame_id: "base_footprint"
pose: 
  pose: 
    position: 
      x: 0.9132763090557856
      y: 3.4825066795818618
      z: -0.0010079254467542584
    orientation: 
      x: -8.585105274564494e-05
      y: 0.0015890341058083267
      z: 0.05359395190232815
      w: 0.9985615433811269
  covariance: [1e-05, 0.0, 0.0, 0.0, 0.0, 0.0, 0.0, 1e-05, 0.0, 0.0, 0.0, 0.0, 0.0, 0.0, 1000000000000.0, 0.0, 0.0, 0.0, 0.0, 0.0, 0.0, 1000000000000.0, 0.0, 0.0, 0.0, 0.0, 0.0, 0.0, 1000000000000.0, 0.0, 0.0, 0.0, 0.0, 0.0, 0.0, 0.001]
twist: 
  twist: 
    linear: 
      x: -2.464319641672963e-05
      y: 1.3094312530606434e-06
      z: 0.0
    angular: 
      x: 0.0
      y: 0.0
      z: 0.0006986172839420132
  covariance: [0.0, 0.0, 0.0, 0.0, 0.0, 0.0, 0.0, 0.0, 0.0, 0.0, 0.0, 0.0, 0.0, 0.0, 0.0, 0.0, 0.0, 0.0, 0.0, 0.0, 0.0, 0.0, 0.0, 0.0, 0.0, 0.0, 0.0, 0.0, 0.0, 0.0, 0.0, 0.0, 0.0, 0.0, 0.0, 0.0]
---
header: 
  seq: 21749
  stamp: 
    secs: 725
    nsecs: 176000000
  frame_id: "odom"
child_frame_id: "base_footprint"
pose: 
  pose: 
    position: 
      x: 0.9132755010106829
      y: 3.482506589311068
      z: -0.0010079255274738214
    orientation: 
      x: -8.586663534268902e-05
      y: 0.0015890335156973094
      z: 0.05360375448370568
      w: 0.9985610172166035
  covariance: [1e-05, 0.0, 0.0, 0.0, 0.0, 0.0, 0.0, 1e-05, 0.0, 0.0, 0.0, 0.0, 0.0, 0.0, 1000000000000.0, 0.0, 0.0, 0.0, 0.0, 0.0, 0.0, 1000000000000.0, 0.0, 0.0, 0.0, 0.0, 0.0, 0.0, 1000000000000.0, 0.0, 0.0, 0.0, 0.0, 0.0, 0.0, 0.001]
twist: 
  twist: 
    linear: 
      x: -2.4675902853065327e-05
      y: 1.309071659222627e-06
      z: 0.0
    angular: 
      x: 0.0
      y: 0.0
      z: 0.000698685662155811
  covariance: [0.0, 0.0, 0.0, 0.0, 0.0, 0.0, 0.0, 0.0, 0.0, 0.0, 0.0, 0.0, 0.0, 0.0, 0.0, 0.0, 0.0, 0.0, 0.0, 0.0, 0.0, 0.0, 0.0, 0.0, 0.0, 0.0, 0.0, 0.0, 0.0, 0.0, 0.0, 0.0, 0.0, 0.0, 0.0, 0.0]
---
header: 
  seq: 21750
  stamp: 
    secs: 725
    nsecs: 210000000
  frame_id: "odom"
child_frame_id: "base_footprint"
pose: 
  pose: 
    position: 
      x: 0.913274667437411
      y: 3.482506496174938
      z: -0.0010079256106709684
    orientation: 
      x: -8.588269207976966e-05
      y: 0.0015890329075337317
      z: 0.05361385529430225
      w: 0.9985604749433376
  covariance: [1e-05, 0.0, 0.0, 0.0, 0.0, 0.0, 0.0, 1e-05, 0.0, 0.0, 0.0, 0.0, 0.0, 0.0, 1000000000000.0, 0.0, 0.0, 0.0, 0.0, 0.0, 0.0, 1000000000000.0, 0.0, 0.0, 0.0, 0.0, 0.0, 0.0, 1000000000000.0, 0.0, 0.0, 0.0, 0.0, 0.0, 0.0, 0.001]
twist: 
  twist: 
    linear: 
      x: -2.4709601565973088e-05
      y: 1.3087012493644343e-06
      z: 0.0
    angular: 
      x: 0.0
      y: 0.0
      z: 0.0006987561829812202
  covariance: [0.0, 0.0, 0.0, 0.0, 0.0, 0.0, 0.0, 0.0, 0.0, 0.0, 0.0, 0.0, 0.0, 0.0, 0.0, 0.0, 0.0, 0.0, 0.0, 0.0, 0.0, 0.0, 0.0, 0.0, 0.0, 0.0, 0.0, 0.0, 0.0, 0.0, 0.0, 0.0, 0.0, 0.0, 0.0, 0.0]
---
header: 
  seq: 21751
  stamp: 
    secs: 725
    nsecs: 243000000
  frame_id: "odom"
child_frame_id: "base_footprint"
pose: 
  pose: 
    position: 
      x: 0.9132738573698431
      y: 3.482506405651294
      z: -0.0010079256914517533
    orientation: 
      x: -8.58982784660894e-05
      y: 0.001589032317084736
      z: 0.053623660170575745
      w: 0.9985599484596264
  covariance: [1e-05, 0.0, 0.0, 0.0, 0.0, 0.0, 0.0, 1e-05, 0.0, 0.0, 0.0, 0.0, 0.0, 0.0, 1000000000000.0, 0.0, 0.0, 0.0, 0.0, 0.0, 0.0, 1000000000000.0, 0.0, 0.0, 0.0, 0.0, 0.0, 0.0, 1000000000000.0, 0.0, 0.0, 0.0, 0.0, 0.0, 0.0, 0.001]
twist: 
  twist: 
    linear: 
      x: -2.4742303573682293e-05
      y: 1.3084777716381739e-06
      z: 0.0
    angular: 
      x: 0.0
      y: 0.0
      z: 0.0006988248311127982
  covariance: [0.0, 0.0, 0.0, 0.0, 0.0, 0.0, 0.0, 0.0, 0.0, 0.0, 0.0, 0.0, 0.0, 0.0, 0.0, 0.0, 0.0, 0.0, 0.0, 0.0, 0.0, 0.0, 0.0, 0.0, 0.0, 0.0, 0.0, 0.0, 0.0, 0.0, 0.0, 0.0, 0.0, 0.0, 0.0, 0.0]
---
header: 
  seq: 21752
  stamp: 
    secs: 725
    nsecs: 276000000
  frame_id: "odom"
child_frame_id: "base_footprint"
pose: 
  pose: 
    position: 
      x: 0.9132730463064491
      y: 3.482506315002773
      z: -0.0010079257722483206
    orientation: 
      x: -8.591386676464277e-05
      y: 0.0015890317264194065
      z: 0.053633466181127125
      w: 0.9985594218184405
  covariance: [1e-05, 0.0, 0.0, 0.0, 0.0, 0.0, 0.0, 1e-05, 0.0, 0.0, 0.0, 0.0, 0.0, 0.0, 1000000000000.0, 0.0, 0.0, 0.0, 0.0, 0.0, 0.0, 1000000000000.0, 0.0, 0.0, 0.0, 0.0, 0.0, 0.0, 1000000000000.0, 0.0, 0.0, 0.0, 0.0, 0.0, 0.0, 0.001]
twist: 
  twist: 
    linear: 
      x: -2.4775014303131385e-05
      y: 1.308390668156766e-06
      z: 0.0
    angular: 
      x: 0.0
      y: 0.0
      z: 0.000698893538878159
  covariance: [0.0, 0.0, 0.0, 0.0, 0.0, 0.0, 0.0, 0.0, 0.0, 0.0, 0.0, 0.0, 0.0, 0.0, 0.0, 0.0, 0.0, 0.0, 0.0, 0.0, 0.0, 0.0, 0.0, 0.0, 0.0, 0.0, 0.0, 0.0, 0.0, 0.0, 0.0, 0.0, 0.0, 0.0, 0.0, 0.0]
---
header: 
  seq: 21753
  stamp: 
    secs: 725
    nsecs: 310000000
  frame_id: "odom"
child_frame_id: "base_footprint"
pose: 
  pose: 
    position: 
      x: 0.913272209623359
      y: 3.482506221477278
      z: -0.0010079258555308022
    orientation: 
      x: -8.592992936916005e-05
      y: 0.0015890311177041807
      z: 0.053643570529882244
      w: 0.9985588790536891
  covariance: [1e-05, 0.0, 0.0, 0.0, 0.0, 0.0, 0.0, 1e-05, 0.0, 0.0, 0.0, 0.0, 0.0, 0.0, 1000000000000.0, 0.0, 0.0, 0.0, 0.0, 0.0, 0.0, 1000000000000.0, 0.0, 0.0, 0.0, 0.0, 0.0, 0.0, 1000000000000.0, 0.0, 0.0, 0.0, 0.0, 0.0, 0.0, 0.001]
twist: 
  twist: 
    linear: 
      x: -2.4808712257692852e-05
      y: 1.3083012228189748e-06
      z: 0.0
    angular: 
      x: 0.0
      y: 0.0
      z: 0.0006989644442652415
  covariance: [0.0, 0.0, 0.0, 0.0, 0.0, 0.0, 0.0, 0.0, 0.0, 0.0, 0.0, 0.0, 0.0, 0.0, 0.0, 0.0, 0.0, 0.0, 0.0, 0.0, 0.0, 0.0, 0.0, 0.0, 0.0, 0.0, 0.0, 0.0, 0.0, 0.0, 0.0, 0.0, 0.0, 0.0, 0.0, 0.0]
---
header: 
  seq: 21754
  stamp: 
    secs: 725
    nsecs: 343000000
  frame_id: "odom"
child_frame_id: "base_footprint"
pose: 
  pose: 
    position: 
      x: 0.9132713965374023
      y: 3.4825061305762843
      z: -0.0010079259363910548
    orientation: 
      x: -8.594552144890159e-05
      y: 0.0015890305267147024
      z: 0.053653378845357355
      w: 0.9985583520925703
  covariance: [1e-05, 0.0, 0.0, 0.0, 0.0, 0.0, 0.0, 1e-05, 0.0, 0.0, 0.0, 0.0, 0.0, 0.0, 1000000000000.0, 0.0, 0.0, 0.0, 0.0, 0.0, 0.0, 1000000000000.0, 0.0, 0.0, 0.0, 0.0, 0.0, 0.0, 1000000000000.0, 0.0, 0.0, 0.0, 0.0, 0.0, 0.0, 0.001]
twist: 
  twist: 
    linear: 
      x: -2.484142591665806e-05
      y: 1.3082142210888892e-06
      z: 0.0
    angular: 
      x: 0.0
      y: 0.0
      z: 0.000699033310032999
  covariance: [0.0, 0.0, 0.0, 0.0, 0.0, 0.0, 0.0, 0.0, 0.0, 0.0, 0.0, 0.0, 0.0, 0.0, 0.0, 0.0, 0.0, 0.0, 0.0, 0.0, 0.0, 0.0, 0.0, 0.0, 0.0, 0.0, 0.0, 0.0, 0.0, 0.0, 0.0, 0.0, 0.0, 0.0, 0.0, 0.0]
---
header: 
  seq: 21755
  stamp: 
    secs: 725
    nsecs: 376000000
  frame_id: "odom"
child_frame_id: "base_footprint"
pose: 
  pose: 
    position: 
      x: 0.9132705824552132
      y: 3.482506039550875
      z: -0.0010079260172818696
    orientation: 
      x: -8.596111539644054e-05
      y: 0.0015890299355624646
      z: 0.05366318829790229
      w: 0.9985578249737241
  covariance: [1e-05, 0.0, 0.0, 0.0, 0.0, 0.0, 0.0, 1e-05, 0.0, 0.0, 0.0, 0.0, 0.0, 0.0, 1000000000000.0, 0.0, 0.0, 0.0, 0.0, 0.0, 0.0, 1000000000000.0, 0.0, 0.0, 0.0, 0.0, 0.0, 0.0, 1000000000000.0, 0.0, 0.0, 0.0, 0.0, 0.0, 0.0, 0.001]
twist: 
  twist: 
    linear: 
      x: -2.487413553106772e-05
      y: 1.3081271681531028e-06
      z: 0.0
    angular: 
      x: 0.0
      y: 0.0
      z: 0.0006991022941211212
  covariance: [0.0, 0.0, 0.0, 0.0, 0.0, 0.0, 0.0, 0.0, 0.0, 0.0, 0.0, 0.0, 0.0, 0.0, 0.0, 0.0, 0.0, 0.0, 0.0, 0.0, 0.0, 0.0, 0.0, 0.0, 0.0, 0.0, 0.0, 0.0, 0.0, 0.0, 0.0, 0.0, 0.0, 0.0, 0.0, 0.0]
---
header: 
  seq: 21756
  stamp: 
    secs: 725
    nsecs: 410000000
  frame_id: "odom"
child_frame_id: "base_footprint"
pose: 
  pose: 
    position: 
      x: 0.9132697426619347
      y: 3.4825059456369494
      z: -0.0010079261006550322
    orientation: 
      x: -8.59771838459017e-05
      y: 0.0015890293263233796
      z: 0.05367329619736145
      w: 0.9985572817164945
  covariance: [1e-05, 0.0, 0.0, 0.0, 0.0, 0.0, 0.0, 1e-05, 0.0, 0.0, 0.0, 0.0, 0.0, 0.0, 1000000000000.0, 0.0, 0.0, 0.0, 0.0, 0.0, 0.0, 1000000000000.0, 0.0, 0.0, 0.0, 0.0, 0.0, 0.0, 1000000000000.0, 0.0, 0.0, 0.0, 0.0, 0.0, 0.0, 0.001]
twist: 
  twist: 
    linear: 
      x: -2.4907839377206566e-05
      y: 1.3080377438496842e-06
      z: 0.0
    angular: 
      x: 0.0
      y: 0.0
      z: 0.0006991734268709996
  covariance: [0.0, 0.0, 0.0, 0.0, 0.0, 0.0, 0.0, 0.0, 0.0, 0.0, 0.0, 0.0, 0.0, 0.0, 0.0, 0.0, 0.0, 0.0, 0.0, 0.0, 0.0, 0.0, 0.0, 0.0, 0.0, 0.0, 0.0, 0.0, 0.0, 0.0, 0.0, 0.0, 0.0, 0.0, 0.0, 0.0]
---
header: 
  seq: 21757
  stamp: 
    secs: 725
    nsecs: 443000000
  frame_id: "odom"
child_frame_id: "base_footprint"
pose: 
  pose: 
    position: 
      x: 0.913268926557131
      y: 3.482505854358812
      z: -0.0010079261816055042
    orientation: 
      x: -8.599278159846148e-05
      y: 0.001589028734832303
      z: 0.05368310796259962
      w: 0.9985567542770905
  covariance: [1e-05, 0.0, 0.0, 0.0, 0.0, 0.0, 0.0, 1e-05, 0.0, 0.0, 0.0, 0.0, 0.0, 0.0, 1000000000000.0, 0.0, 0.0, 0.0, 0.0, 0.0, 0.0, 1000000000000.0, 0.0, 0.0, 0.0, 0.0, 0.0, 0.0, 1000000000000.0, 0.0, 0.0, 0.0, 0.0, 0.0, 0.0, 0.001]
twist: 
  twist: 
    linear: 
      x: -2.4940551279257282e-05
      y: 1.3079508201079613e-06
      z: 0.0
    angular: 
      x: 0.0
      y: 0.0
      z: 0.0006992425705296549
  covariance: [0.0, 0.0, 0.0, 0.0, 0.0, 0.0, 0.0, 0.0, 0.0, 0.0, 0.0, 0.0, 0.0, 0.0, 0.0, 0.0, 0.0, 0.0, 0.0, 0.0, 0.0, 0.0, 0.0, 0.0, 0.0, 0.0, 0.0, 0.0, 0.0, 0.0, 0.0, 0.0, 0.0, 0.0, 0.0, 0.0]
---
header: 
  seq: 21758
  stamp: 
    secs: 725
    nsecs: 476000000
  frame_id: "odom"
child_frame_id: "base_footprint"
pose: 
  pose: 
    position: 
      x: 0.9132681094560766
      y: 3.4825057629561322
      z: -0.0010079262625863339
    orientation: 
      x: -8.600838122546288e-05
      y: 0.0015890281431774065
      z: 0.053692920868741355
      w: 0.9985562266796506
  covariance: [1e-05, 0.0, 0.0, 0.0, 0.0, 0.0, 0.0, 1e-05, 0.0, 0.0, 0.0, 0.0, 0.0, 0.0, 1000000000000.0, 0.0, 0.0, 0.0, 0.0, 0.0, 0.0, 1000000000000.0, 0.0, 0.0, 0.0, 0.0, 0.0, 0.0, 1000000000000.0, 0.0, 0.0, 0.0, 0.0, 0.0, 0.0, 0.001]
twist: 
  twist: 
    linear: 
      x: -2.497326559671151e-05
      y: 1.3078638084895412e-06
      z: 0.0
    angular: 
      x: 0.0
      y: 0.0
      z: 0.0006993117838518599
  covariance: [0.0, 0.0, 0.0, 0.0, 0.0, 0.0, 0.0, 0.0, 0.0, 0.0, 0.0, 0.0, 0.0, 0.0, 0.0, 0.0, 0.0, 0.0, 0.0, 0.0, 0.0, 0.0, 0.0, 0.0, 0.0, 0.0, 0.0, 0.0, 0.0, 0.0, 0.0, 0.0, 0.0, 0.0, 0.0, 0.0]
---
header: 
  seq: 21759
  stamp: 
    secs: 725
    nsecs: 510000000
  frame_id: "odom"
child_frame_id: "base_footprint"
pose: 
  pose: 
    position: 
      x: 0.9132672665523807
      y: 3.4825056686533693
      z: -0.0010079263460514958
    orientation: 
      x: -8.602445553495401e-05
      y: 0.0015890275334172546
      z: 0.053703032330288246
      w: 0.9985556829290108
  covariance: [1e-05, 0.0, 0.0, 0.0, 0.0, 0.0, 0.0, 1e-05, 0.0, 0.0, 0.0, 0.0, 0.0, 0.0, 1000000000000.0, 0.0, 0.0, 0.0, 0.0, 0.0, 0.0, 1000000000000.0, 0.0, 0.0, 0.0, 0.0, 0.0, 0.0, 1000000000000.0, 0.0, 0.0, 0.0, 0.0, 0.0, 0.0, 0.001]
twist: 
  twist: 
    linear: 
      x: -2.5006969345905584e-05
      y: 1.3077742480193278e-06
      z: 0.0
    angular: 
      x: 0.0
      y: 0.0
      z: 0.0006993831885514441
  covariance: [0.0, 0.0, 0.0, 0.0, 0.0, 0.0, 0.0, 0.0, 0.0, 0.0, 0.0, 0.0, 0.0, 0.0, 0.0, 0.0, 0.0, 0.0, 0.0, 0.0, 0.0, 0.0, 0.0, 0.0, 0.0, 0.0, 0.0, 0.0, 0.0, 0.0, 0.0, 0.0, 0.0, 0.0, 0.0, 0.0]
---
header: 
  seq: 21760
  stamp: 
    secs: 725
    nsecs: 543000000
  frame_id: "odom"
child_frame_id: "base_footprint"
pose: 
  pose: 
    position: 
      x: 0.9132664474285865
      y: 3.4825055769976996
      z: -0.0010079264270923295
    orientation: 
      x: -8.604005897835063e-05
      y: 0.0015890269414236245
      z: 0.05371284755660124
      w: 0.9985551550104026
  covariance: [1e-05, 0.0, 0.0, 0.0, 0.0, 0.0, 0.0, 1e-05, 0.0, 0.0, 0.0, 0.0, 0.0, 0.0, 1000000000000.0, 0.0, 0.0, 0.0, 0.0, 0.0, 0.0, 1000000000000.0, 0.0, 0.0, 0.0, 0.0, 0.0, 0.0, 1000000000000.0, 0.0, 0.0, 0.0, 0.0, 0.0, 0.0, 0.001]
twist: 
  twist: 
    linear: 
      x: -2.503968428734801e-05
      y: 1.3076873734991796e-06
      z: 0.0
    angular: 
      x: 0.0
      y: 0.0
      z: 0.0006994525733397082
  covariance: [0.0, 0.0, 0.0, 0.0, 0.0, 0.0, 0.0, 0.0, 0.0, 0.0, 0.0, 0.0, 0.0, 0.0, 0.0, 0.0, 0.0, 0.0, 0.0, 0.0, 0.0, 0.0, 0.0, 0.0, 0.0, 0.0, 0.0, 0.0, 0.0, 0.0, 0.0, 0.0, 0.0, 0.0, 0.0, 0.0]
---
header: 
  seq: 21761
  stamp: 
    secs: 725
    nsecs: 576000000
  frame_id: "odom"
child_frame_id: "base_footprint"
pose: 
  pose: 
    position: 
      x: 0.9132656273084977
      y: 3.4825054852173576
      z: -0.0010079265081624107
    orientation: 
      x: -8.605566430543083e-05
      y: 0.001589026349261823
      z: 0.053722663927561115
      w: 0.9985546269334545
  covariance: [1e-05, 0.0, 0.0, 0.0, 0.0, 0.0, 0.0, 1e-05, 0.0, 0.0, 0.0, 0.0, 0.0, 0.0, 1000000000000.0, 0.0, 0.0, 0.0, 0.0, 0.0, 0.0, 1000000000000.0, 0.0, 0.0, 0.0, 0.0, 0.0, 0.0, 1000000000000.0, 0.0, 0.0, 0.0, 0.0, 0.0, 0.0, 0.001]
twist: 
  twist: 
    linear: 
      x: -2.5072398104502075e-05
      y: 1.3076005345742363e-06
      z: 0.0
    angular: 
      x: 0.0
      y: 0.0
      z: 0.0006995220424922137
  covariance: [0.0, 0.0, 0.0, 0.0, 0.0, 0.0, 0.0, 0.0, 0.0, 0.0, 0.0, 0.0, 0.0, 0.0, 0.0, 0.0, 0.0, 0.0, 0.0, 0.0, 0.0, 0.0, 0.0, 0.0, 0.0, 0.0, 0.0, 0.0, 0.0, 0.0, 0.0, 0.0, 0.0, 0.0, 0.0, 0.0]
---
header: 
  seq: 21762
  stamp: 
    secs: 725
    nsecs: 610000000
  frame_id: "odom"
child_frame_id: "base_footprint"
pose: 
  pose: 
    position: 
      x: 0.91326478129422
      y: 3.482505390525353
      z: -0.0010079265917203699
    orientation: 
      x: -8.60717444916918e-05
      y: 0.0015890257389817987
      z: 0.05373277896276877
      w: 0.9985540826884611
  covariance: [1e-05, 0.0, 0.0, 0.0, 0.0, 0.0, 0.0, 1e-05, 0.0, 0.0, 0.0, 0.0, 0.0, 0.0, 1000000000000.0, 0.0, 0.0, 0.0, 0.0, 0.0, 0.0, 1000000000000.0, 0.0, 0.0, 0.0, 0.0, 0.0, 0.0, 1000000000000.0, 0.0, 0.0, 0.0, 0.0, 0.0, 0.0, 0.001]
twist: 
  twist: 
    linear: 
      x: -2.5106105469467632e-05
      y: 1.307510822992276e-06
      z: 0.0
    angular: 
      x: 0.0
      y: 0.0
      z: 0.0006995937026687926
  covariance: [0.0, 0.0, 0.0, 0.0, 0.0, 0.0, 0.0, 0.0, 0.0, 0.0, 0.0, 0.0, 0.0, 0.0, 0.0, 0.0, 0.0, 0.0, 0.0, 0.0, 0.0, 0.0, 0.0, 0.0, 0.0, 0.0, 0.0, 0.0, 0.0, 0.0, 0.0, 0.0, 0.0, 0.0, 0.0, 0.0]
---
header: 
  seq: 21763
  stamp: 
    secs: 725
    nsecs: 643000000
  frame_id: "odom"
child_frame_id: "base_footprint"
pose: 
  pose: 
    position: 
      x: 0.9132639591512891
      y: 3.4825052984917595
      z: -0.0010079266728506425
    orientation: 
      x: -8.608735364697929e-05
      y: 0.0015890251464809127
      z: 0.05374259766143393
      w: 0.99855355428973
  covariance: [1e-05, 0.0, 0.0, 0.0, 0.0, 0.0, 0.0, 1e-05, 0.0, 0.0, 0.0, 0.0, 0.0, 0.0, 1000000000000.0, 0.0, 0.0, 0.0, 0.0, 0.0, 0.0, 1000000000000.0, 0.0, 0.0, 0.0, 0.0, 0.0, 0.0, 1000000000000.0, 0.0, 0.0, 0.0, 0.0, 0.0, 0.0, 0.001]
twist: 
  twist: 
    linear: 
      x: -2.513882197980457e-05
      y: 1.307423741195474e-06
      z: 0.0
    angular: 
      x: 0.0
      y: 0.0
      z: 0.0006996633387001816
  covariance: [0.0, 0.0, 0.0, 0.0, 0.0, 0.0, 0.0, 0.0, 0.0, 0.0, 0.0, 0.0, 0.0, 0.0, 0.0, 0.0, 0.0, 0.0, 0.0, 0.0, 0.0, 0.0, 0.0, 0.0, 0.0, 0.0, 0.0, 0.0, 0.0, 0.0, 0.0, 0.0, 0.0, 0.0, 0.0, 0.0]
---
header: 
  seq: 21764
  stamp: 
    secs: 725
    nsecs: 676000000
  frame_id: "odom"
child_frame_id: "base_footprint"
pose: 
  pose: 
    position: 
      x: 0.9132631360120074
      y: 3.4825052063333644
      z: -0.0010079267540106067
    orientation: 
      x: -8.61029646907851e-05
      y: 0.0015890245538128596
      z: 0.05375241750843247
      w: 0.9985530257323576
  covariance: [1e-05, 0.0, 0.0, 0.0, 0.0, 0.0, 0.0, 1e-05, 0.0, 0.0, 0.0, 0.0, 0.0, 0.0, 1000000000000.0, 0.0, 0.0, 0.0, 0.0, 0.0, 0.0, 1000000000000.0, 0.0, 0.0, 0.0, 0.0, 0.0, 0.0, 1000000000000.0, 0.0, 0.0, 0.0, 0.0, 0.0, 0.0, 0.001]
twist: 
  twist: 
    linear: 
      x: -2.5171537437662584e-05
      y: 1.3073367504045295e-06
      z: 0.0
    angular: 
      x: 0.0
      y: 0.0
      z: 0.0006997330583616051
  covariance: [0.0, 0.0, 0.0, 0.0, 0.0, 0.0, 0.0, 0.0, 0.0, 0.0, 0.0, 0.0, 0.0, 0.0, 0.0, 0.0, 0.0, 0.0, 0.0, 0.0, 0.0, 0.0, 0.0, 0.0, 0.0, 0.0, 0.0, 0.0, 0.0, 0.0, 0.0, 0.0, 0.0, 0.0, 0.0, 0.0]
---
header: 
  seq: 21765
  stamp: 
    secs: 725
    nsecs: 710000000
  frame_id: "odom"
child_frame_id: "base_footprint"
pose: 
  pose: 
    position: 
      x: 0.9132622868870008
      y: 3.482505111251715
      z: -0.0010079268376608878
    orientation: 
      x: -8.611905077423834e-05
      y: 0.001589023943009708
      z: 0.05376253612891613
      w: 0.9985524809920632
  covariance: [1e-05, 0.0, 0.0, 0.0, 0.0, 0.0, 0.0, 1e-05, 0.0, 0.0, 0.0, 0.0, 0.0, 0.0, 1000000000000.0, 0.0, 0.0, 0.0, 0.0, 0.0, 0.0, 1000000000000.0, 0.0, 0.0, 0.0, 0.0, 0.0, 0.0, 1000000000000.0, 0.0, 0.0, 0.0, 0.0, 0.0, 0.0, 0.001]
twist: 
  twist: 
    linear: 
      x: -2.5205246601064086e-05
      y: 1.307247119949954e-06
      z: 0.0
    angular: 
      x: 0.0
      y: 0.0
      z: 0.0006998049761284878
  covariance: [0.0, 0.0, 0.0, 0.0, 0.0, 0.0, 0.0, 0.0, 0.0, 0.0, 0.0, 0.0, 0.0, 0.0, 0.0, 0.0, 0.0, 0.0, 0.0, 0.0, 0.0, 0.0, 0.0, 0.0, 0.0, 0.0, 0.0, 0.0, 0.0, 0.0, 0.0, 0.0, 0.0, 0.0, 0.0, 0.0]
---
header: 
  seq: 21766
  stamp: 
    secs: 725
    nsecs: 743000000
  frame_id: "odom"
child_frame_id: "base_footprint"
pose: 
  pose: 
    position: 
      x: 0.9132614617247823
      y: 3.482505018839805
      z: -0.0010079269188808873
    orientation: 
      x: -8.613466565913847e-05
      y: 0.001589023350000986
      z: 0.053772358311165426
      w: 0.9985519521122918
  covariance: [1e-05, 0.0, 0.0, 0.0, 0.0, 0.0, 0.0, 1e-05, 0.0, 0.0, 0.0, 0.0, 0.0, 0.0, 1000000000000.0, 0.0, 0.0, 0.0, 0.0, 0.0, 0.0, 1000000000000.0, 0.0, 0.0, 0.0, 0.0, 0.0, 0.0, 1000000000000.0, 0.0, 0.0, 0.0, 0.0, 0.0, 0.0, 0.001]
twist: 
  twist: 
    linear: 
      x: -2.5237963098375365e-05
      y: 1.307160070765488e-06
      z: 0.0
    angular: 
      x: 0.0
      y: 0.0
      z: 0.000699874863453498
  covariance: [0.0, 0.0, 0.0, 0.0, 0.0, 0.0, 0.0, 0.0, 0.0, 0.0, 0.0, 0.0, 0.0, 0.0, 0.0, 0.0, 0.0, 0.0, 0.0, 0.0, 0.0, 0.0, 0.0, 0.0, 0.0, 0.0, 0.0, 0.0, 0.0, 0.0, 0.0, 0.0, 0.0, 0.0, 0.0, 0.0]
---
header: 
  seq: 21767
  stamp: 
    secs: 725
    nsecs: 776000000
  frame_id: "odom"
child_frame_id: "base_footprint"
pose: 
  pose: 
    position: 
      x: 0.9132606355661691
      y: 3.4825049263029637
      z: -0.0010079270001305297
    orientation: 
      x: -8.615028243883106e-05
      y: 0.0015890227568244166
      z: 0.05378218164547066
      w: 0.9985514230735747
  covariance: [1e-05, 0.0, 0.0, 0.0, 0.0, 0.0, 0.0, 1e-05, 0.0, 0.0, 0.0, 0.0, 0.0, 0.0, 1000000000000.0, 0.0, 0.0, 0.0, 0.0, 0.0, 0.0, 1000000000000.0, 0.0, 0.0, 0.0, 0.0, 0.0, 0.0, 1000000000000.0, 0.0, 0.0, 0.0, 0.0, 0.0, 0.0, 0.001]
twist: 
  twist: 
    linear: 
      x: -2.5270681749912813e-05
      y: 1.3070730715248898e-06
      z: 0.0
    angular: 
      x: 0.0
      y: 0.0
      z: 0.0006999448328926825
  covariance: [0.0, 0.0, 0.0, 0.0, 0.0, 0.0, 0.0, 0.0, 0.0, 0.0, 0.0, 0.0, 0.0, 0.0, 0.0, 0.0, 0.0, 0.0, 0.0, 0.0, 0.0, 0.0, 0.0, 0.0, 0.0, 0.0, 0.0, 0.0, 0.0, 0.0, 0.0, 0.0, 0.0, 0.0, 0.0, 0.0]
---
header: 
  seq: 21768
  stamp: 
    secs: 725
    nsecs: 810000000
  frame_id: "odom"
child_frame_id: "base_footprint"
pose: 
  pose: 
    position: 
      x: 0.9132597833302888
      y: 3.482504830831264
      z: -0.0010079270838731606
    orientation: 
      x: -8.616637443843631e-05
      y: 0.0015890221454966953
      z: 0.05379230386282083
      w: 0.998550877837032
  covariance: [1e-05, 0.0, 0.0, 0.0, 0.0, 0.0, 0.0, 1e-05, 0.0, 0.0, 0.0, 0.0, 0.0, 0.0, 1000000000000.0, 0.0, 0.0, 0.0, 0.0, 0.0, 0.0, 1000000000000.0, 0.0, 0.0, 0.0, 0.0, 0.0, 0.0, 1000000000000.0, 0.0, 0.0, 0.0, 0.0, 0.0, 0.0, 0.001]
twist: 
  twist: 
    linear: 
      x: -2.530439090132069e-05
      y: 1.3069833075020354e-06
      z: 0.0
    angular: 
      x: 0.0
      y: 0.0
      z: 0.0007000170098566209
  covariance: [0.0, 0.0, 0.0, 0.0, 0.0, 0.0, 0.0, 0.0, 0.0, 0.0, 0.0, 0.0, 0.0, 0.0, 0.0, 0.0, 0.0, 0.0, 0.0, 0.0, 0.0, 0.0, 0.0, 0.0, 0.0, 0.0, 0.0, 0.0, 0.0, 0.0, 0.0, 0.0, 0.0, 0.0, 0.0, 0.0]
---
header: 
  seq: 21769
  stamp: 
    secs: 725
    nsecs: 843000000
  frame_id: "odom"
child_frame_id: "base_footprint"
pose: 
  pose: 
    position: 
      x: 0.9132589551486471
      y: 3.4825047380406455
      z: -0.0010079271651828939
    orientation: 
      x: -8.618199507147554e-05
      y: 0.0015890215519785667
      z: 0.05380212953991786
      w: 0.998550348475299
  covariance: [1e-05, 0.0, 0.0, 0.0, 0.0, 0.0, 0.0, 1e-05, 0.0, 0.0, 0.0, 0.0, 0.0, 0.0, 1000000000000.0, 0.0, 0.0, 0.0, 0.0, 0.0, 0.0, 1000000000000.0, 0.0, 0.0, 0.0, 0.0, 0.0, 0.0, 1000000000000.0, 0.0, 0.0, 0.0, 0.0, 0.0, 0.0, 0.001]
twist: 
  twist: 
    linear: 
      x: -2.533711047499149e-05
      y: 1.3068961404950013e-06
      z: 0.0
    angular: 
      x: 0.0
      y: 0.0
      z: 0.0007000871471559411
  covariance: [0.0, 0.0, 0.0, 0.0, 0.0, 0.0, 0.0, 0.0, 0.0, 0.0, 0.0, 0.0, 0.0, 0.0, 0.0, 0.0, 0.0, 0.0, 0.0, 0.0, 0.0, 0.0, 0.0, 0.0, 0.0, 0.0, 0.0, 0.0, 0.0, 0.0, 0.0, 0.0, 0.0, 0.0, 0.0, 0.0]
---
header: 
  seq: 21770
  stamp: 
    secs: 725
    nsecs: 876000000
  frame_id: "odom"
child_frame_id: "base_footprint"
pose: 
  pose: 
    position: 
      x: 0.9132581259705682
      y: 3.482504645124966
      z: -0.001007927246522159
    orientation: 
      x: -8.619761760567545e-05
      y: 0.0015890209582917656
      z: 0.053811956372789696
      w: 0.9985498189543164
  covariance: [1e-05, 0.0, 0.0, 0.0, 0.0, 0.0, 0.0, 1e-05, 0.0, 0.0, 0.0, 0.0, 0.0, 0.0, 1000000000000.0, 0.0, 0.0, 0.0, 0.0, 0.0, 0.0, 1000000000000.0, 0.0, 0.0, 0.0, 0.0, 0.0, 0.0, 1000000000000.0, 0.0, 0.0, 0.0, 0.0, 0.0, 0.0, 0.001]
twist: 
  twist: 
    linear: 
      x: -2.5369829084731814e-05
      y: 1.3068092458679546e-06
      z: 0.0
    angular: 
      x: 0.0
      y: 0.0
      z: 0.0007001573677264565
  covariance: [0.0, 0.0, 0.0, 0.0, 0.0, 0.0, 0.0, 0.0, 0.0, 0.0, 0.0, 0.0, 0.0, 0.0, 0.0, 0.0, 0.0, 0.0, 0.0, 0.0, 0.0, 0.0, 0.0, 0.0, 0.0, 0.0, 0.0, 0.0, 0.0, 0.0, 0.0, 0.0, 0.0, 0.0, 0.0, 0.0]
---
header: 
  seq: 21771
  stamp: 
    secs: 725
    nsecs: 910000000
  frame_id: "odom"
child_frame_id: "base_footprint"
pose: 
  pose: 
    position: 
      x: 0.9132572706234207
      y: 3.4825045492627957
      z: -0.0010079273303633014
    orientation: 
      x: -8.621371551153554e-05
      y: 0.0015890203464545745
      z: 0.053822082197786926
      w: 0.9985492732206201
  covariance: [1e-05, 0.0, 0.0, 0.0, 0.0, 0.0, 0.0, 1e-05, 0.0, 0.0, 0.0, 0.0, 0.0, 0.0, 1000000000000.0, 0.0, 0.0, 0.0, 0.0, 0.0, 0.0, 1000000000000.0, 0.0, 0.0, 0.0, 0.0, 0.0, 0.0, 1000000000000.0, 0.0, 0.0, 0.0, 0.0, 0.0, 0.0, 0.001]
twist: 
  twist: 
    linear: 
      x: -2.5403562573653475e-05
      y: 1.306725776352377e-06
      z: 0.0
    angular: 
      x: 0.0
      y: 0.0
      z: 0.0007002296976577659
  covariance: [0.0, 0.0, 0.0, 0.0, 0.0, 0.0, 0.0, 0.0, 0.0, 0.0, 0.0, 0.0, 0.0, 0.0, 0.0, 0.0, 0.0, 0.0, 0.0, 0.0, 0.0, 0.0, 0.0, 0.0, 0.0, 0.0, 0.0, 0.0, 0.0, 0.0, 0.0, 0.0, 0.0, 0.0, 0.0, 0.0]
---
header: 
  seq: 21772
  stamp: 
    secs: 725
    nsecs: 943000000
  frame_id: "odom"
child_frame_id: "base_footprint"
pose: 
  pose: 
    position: 
      x: 0.9132564394217847
      y: 3.482504456093043
      z: -0.00100792741176366
    orientation: 
      x: -8.622934189649037e-05
      y: 0.0015890197524235671
      z: 0.053831911379810374
      w: 0.9985487433760674
  covariance: [1e-05, 0.0, 0.0, 0.0, 0.0, 0.0, 0.0, 1e-05, 0.0, 0.0, 0.0, 0.0, 0.0, 0.0, 1000000000000.0, 0.0, 0.0, 0.0, 0.0, 0.0, 0.0, 1000000000000.0, 0.0, 0.0, 0.0, 0.0, 0.0, 0.0, 1000000000000.0, 0.0, 0.0, 0.0, 0.0, 0.0, 0.0, 0.001]
twist: 
  twist: 
    linear: 
      x: -2.5436281203430823e-05
      y: 1.306645007812274e-06
      z: 0.0
    angular: 
      x: 0.0
      y: 0.0
      z: 0.000700300147462975
  covariance: [0.0, 0.0, 0.0, 0.0, 0.0, 0.0, 0.0, 0.0, 0.0, 0.0, 0.0, 0.0, 0.0, 0.0, 0.0, 0.0, 0.0, 0.0, 0.0, 0.0, 0.0, 0.0, 0.0, 0.0, 0.0, 0.0, 0.0, 0.0, 0.0, 0.0, 0.0, 0.0, 0.0, 0.0, 0.0, 0.0]
---
header: 
  seq: 21773
  stamp: 
    secs: 725
    nsecs: 976000000
  frame_id: "odom"
child_frame_id: "base_footprint"
pose: 
  pose: 
    position: 
      x: 0.9132556072235662
      y: 3.4825043627980894
      z: -0.0010079274931977557
    orientation: 
      x: -8.624497017631188e-05
      y: 0.001589019158237873
      z: 0.0538417417211974
      w: 0.9985482133719674
  covariance: [1e-05, 0.0, 0.0, 0.0, 0.0, 0.0, 0.0, 1e-05, 0.0, 0.0, 0.0, 0.0, 0.0, 0.0, 1000000000000.0, 0.0, 0.0, 0.0, 0.0, 0.0, 0.0, 1000000000000.0, 0.0, 0.0, 0.0, 0.0, 0.0, 0.0, 1000000000000.0, 0.0, 0.0, 0.0, 0.0, 0.0, 0.0, 0.001]
twist: 
  twist: 
    linear: 
      x: -2.546901745901616e-05
      y: 1.3065638991181547e-06
      z: 0.0
    angular: 
      x: 0.0
      y: 0.0
      z: 0.0007003705653770338
  covariance: [0.0, 0.0, 0.0, 0.0, 0.0, 0.0, 0.0, 0.0, 0.0, 0.0, 0.0, 0.0, 0.0, 0.0, 0.0, 0.0, 0.0, 0.0, 0.0, 0.0, 0.0, 0.0, 0.0, 0.0, 0.0, 0.0, 0.0, 0.0, 0.0, 0.0, 0.0, 0.0, 0.0, 0.0, 0.0, 0.0]
---
header: 
  seq: 21774
  stamp: 
    secs: 726
    nsecs:  10000000
  frame_id: "odom"
child_frame_id: "base_footprint"
pose: 
  pose: 
    position: 
      x: 0.9132547487648751
      y: 3.482504266545023
      z: -0.001007927577126158
    orientation: 
      x: -8.626107404959642e-05
      y: 0.0015890185458546958
      z: 0.05385187116567891
      w: 0.9985476671401539
  covariance: [1e-05, 0.0, 0.0, 0.0, 0.0, 0.0, 0.0, 1e-05, 0.0, 0.0, 0.0, 0.0, 0.0, 0.0, 1000000000000.0, 0.0, 0.0, 0.0, 0.0, 0.0, 0.0, 1000000000000.0, 0.0, 0.0, 0.0, 0.0, 0.0, 0.0, 1000000000000.0, 0.0, 0.0, 0.0, 0.0, 0.0, 0.0, 0.001]
twist: 
  twist: 
    linear: 
      x: -2.5502734317227447e-05
      y: 1.3064806719621947e-06
      z: 0.0
    angular: 
      x: 0.0
      y: 0.0
      z: 0.000700443279032673
  covariance: [0.0, 0.0, 0.0, 0.0, 0.0, 0.0, 0.0, 0.0, 0.0, 0.0, 0.0, 0.0, 0.0, 0.0, 0.0, 0.0, 0.0, 0.0, 0.0, 0.0, 0.0, 0.0, 0.0, 0.0, 0.0, 0.0, 0.0, 0.0, 0.0, 0.0, 0.0, 0.0, 0.0, 0.0, 0.0, 0.0]
---
header: 
  seq: 21775
  stamp: 
    secs: 726
    nsecs:  43000000
  frame_id: "odom"
child_frame_id: "base_footprint"
pose: 
  pose: 
    position: 
      x: 0.9132539145432185
      y: 3.4825041729957413
      z: -0.001007927658619772
    orientation: 
      x: -8.627670620896458e-05
      y: 0.001589017951323379
      z: 0.05386170386462884
      w: 0.998547136811818
  covariance: [1e-05, 0.0, 0.0, 0.0, 0.0, 0.0, 0.0, 1e-05, 0.0, 0.0, 0.0, 0.0, 0.0, 0.0, 1000000000000.0, 0.0, 0.0, 0.0, 0.0, 0.0, 0.0, 1000000000000.0, 0.0, 0.0, 0.0, 0.0, 0.0, 0.0, 1000000000000.0, 0.0, 0.0, 0.0, 0.0, 0.0, 0.0, 0.001]
twist: 
  twist: 
    linear: 
      x: -2.5535467246971398e-05
      y: 1.306399569805978e-06
      z: 0.0
    angular: 
      x: 0.0
      y: 0.0
      z: 0.0007005138958707648
  covariance: [0.0, 0.0, 0.0, 0.0, 0.0, 0.0, 0.0, 0.0, 0.0, 0.0, 0.0, 0.0, 0.0, 0.0, 0.0, 0.0, 0.0, 0.0, 0.0, 0.0, 0.0, 0.0, 0.0, 0.0, 0.0, 0.0, 0.0, 0.0, 0.0, 0.0, 0.0, 0.0, 0.0, 0.0, 0.0, 0.0]
---
header: 
  seq: 21776
  stamp: 
    secs: 726
    nsecs:  76000000
  frame_id: "odom"
child_frame_id: "base_footprint"
pose: 
  pose: 
    position: 
      x: 0.9132530793249628
      y: 3.482504079321131
      z: -0.0010079277401400973
    orientation: 
      x: -8.629234028972846e-05
      y: 0.001589017356612742
      z: 0.05387153772677006
      w: 0.9985466063236236
  covariance: [1e-05, 0.0, 0.0, 0.0, 0.0, 0.0, 0.0, 1e-05, 0.0, 0.0, 0.0, 0.0, 0.0, 0.0, 1000000000000.0, 0.0, 0.0, 0.0, 0.0, 0.0, 0.0, 1000000000000.0, 0.0, 0.0, 0.0, 0.0, 0.0, 0.0, 1000000000000.0, 0.0, 0.0, 0.0, 0.0, 0.0, 0.0, 0.001]
twist: 
  twist: 
    linear: 
      x: -2.5568195830956526e-05
      y: 1.3063187764567348e-06
      z: 0.0
    angular: 
      x: 0.0
      y: 0.0
      z: 0.0007005846180999039
  covariance: [0.0, 0.0, 0.0, 0.0, 0.0, 0.0, 0.0, 0.0, 0.0, 0.0, 0.0, 0.0, 0.0, 0.0, 0.0, 0.0, 0.0, 0.0, 0.0, 0.0, 0.0, 0.0, 0.0, 0.0, 0.0, 0.0, 0.0, 0.0, 0.0, 0.0, 0.0, 0.0, 0.0, 0.0, 0.0, 0.0]
---
header: 
  seq: 21777
  stamp: 
    secs: 726
    nsecs: 110000000
  frame_id: "odom"
child_frame_id: "base_footprint"
pose: 
  pose: 
    position: 
      x: 0.9132522177546337
      y: 3.4825039826767625
      z: -0.0010079278241637013
    orientation: 
      x: -8.630845012776365e-05
      y: 0.0015890167437099384
      z: 0.053881670802400534
      w: 0.9985460595927368
  covariance: [1e-05, 0.0, 0.0, 0.0, 0.0, 0.0, 0.0, 1e-05, 0.0, 0.0, 0.0, 0.0, 0.0, 0.0, 1000000000000.0, 0.0, 0.0, 0.0, 0.0, 0.0, 0.0, 1000000000000.0, 0.0, 0.0, 0.0, 0.0, 0.0, 0.0, 1000000000000.0, 0.0, 0.0, 0.0, 0.0, 0.0, 0.0, 0.001]
twist: 
  twist: 
    linear: 
      x: -2.560191833873528e-05
      y: 1.3062353372194826e-06
      z: 0.0
    angular: 
      x: 0.0
      y: 0.0
      z: 0.0007006575600685485
  covariance: [0.0, 0.0, 0.0, 0.0, 0.0, 0.0, 0.0, 0.0, 0.0, 0.0, 0.0, 0.0, 0.0, 0.0, 0.0, 0.0, 0.0, 0.0, 0.0, 0.0, 0.0, 0.0, 0.0, 0.0, 0.0, 0.0, 0.0, 0.0, 0.0, 0.0, 0.0, 0.0, 0.0, 0.0, 0.0, 0.0]
---
header: 
  seq: 21778
  stamp: 
    secs: 726
    nsecs: 143000000
  frame_id: "odom"
child_frame_id: "base_footprint"
pose: 
  pose: 
    position: 
      x: 0.9132513805129316
      y: 3.4825038887475643
      z: -0.0010079279057397424
    orientation: 
      x: -8.632408807997827e-05
      y: 0.0015890161486424735
      z: 0.05389150702937579
      w: 0.9985455287797018
  covariance: [1e-05, 0.0, 0.0, 0.0, 0.0, 0.0, 0.0, 1e-05, 0.0, 0.0, 0.0, 0.0, 0.0, 0.0, 1000000000000.0, 0.0, 0.0, 0.0, 0.0, 0.0, 0.0, 1000000000000.0, 0.0, 0.0, 0.0, 0.0, 0.0, 0.0, 1000000000000.0, 0.0, 0.0, 0.0, 0.0, 0.0, 0.0, 0.001]
twist: 
  twist: 
    linear: 
      x: -2.5634651900296185e-05
      y: 1.3061544526397954e-06
      z: 0.0
    angular: 
      x: 0.0
      y: 0.0
      z: 0.0007007284671944034
  covariance: [0.0, 0.0, 0.0, 0.0, 0.0, 0.0, 0.0, 0.0, 0.0, 0.0, 0.0, 0.0, 0.0, 0.0, 0.0, 0.0, 0.0, 0.0, 0.0, 0.0, 0.0, 0.0, 0.0, 0.0, 0.0, 0.0, 0.0, 0.0, 0.0, 0.0, 0.0, 0.0, 0.0, 0.0, 0.0, 0.0]
---
header: 
  seq: 21779
  stamp: 
    secs: 726
    nsecs: 176000000
  frame_id: "odom"
child_frame_id: "base_footprint"
pose: 
  pose: 
    position: 
      x: 0.9132505422747568
      y: 3.482503794692925
      z: -0.0010079279873420784
    orientation: 
      x: -8.63397279415259e-05
      y: 0.001589015553395567
      z: 0.053901344422377484
      w: 0.9985449978065499
  covariance: [1e-05, 0.0, 0.0, 0.0, 0.0, 0.0, 0.0, 1e-05, 0.0, 0.0, 0.0, 0.0, 0.0, 0.0, 1000000000000.0, 0.0, 0.0, 0.0, 0.0, 0.0, 0.0, 1000000000000.0, 0.0, 0.0, 0.0, 0.0, 0.0, 0.0, 1000000000000.0, 0.0, 0.0, 0.0, 0.0, 0.0, 0.0, 0.001]
twist: 
  twist: 
    linear: 
      x: -2.566738434758222e-05
      y: 1.3060737188295098e-06
      z: 0.0
    angular: 
      x: 0.0
      y: 0.0
      z: 0.0007007994834634882
  covariance: [0.0, 0.0, 0.0, 0.0, 0.0, 0.0, 0.0, 0.0, 0.0, 0.0, 0.0, 0.0, 0.0, 0.0, 0.0, 0.0, 0.0, 0.0, 0.0, 0.0, 0.0, 0.0, 0.0, 0.0, 0.0, 0.0, 0.0, 0.0, 0.0, 0.0, 0.0, 0.0, 0.0, 0.0, 0.0, 0.0]
---
header: 
  seq: 21780
  stamp: 
    secs: 726
    nsecs: 210000000
  frame_id: "odom"
child_frame_id: "base_footprint"
pose: 
  pose: 
    position: 
      x: 0.9132496775932035
      y: 3.482503697656903
      z: -0.001007928071448217
    orientation: 
      x: -8.635584374648621e-05
      y: 0.001589014939933099
      z: 0.05391148113912796
      w: 0.998544450575724
  covariance: [1e-05, 0.0, 0.0, 0.0, 0.0, 0.0, 0.0, 1e-05, 0.0, 0.0, 0.0, 0.0, 0.0, 0.0, 1000000000000.0, 0.0, 0.0, 0.0, 0.0, 0.0, 0.0, 1000000000000.0, 0.0, 0.0, 0.0, 0.0, 0.0, 0.0, 1000000000000.0, 0.0, 0.0, 0.0, 0.0, 0.0, 0.0, 0.001]
twist: 
  twist: 
    linear: 
      x: -2.5701111821684247e-05
      y: 1.3059903923546105e-06
      z: 0.0
    angular: 
      x: 0.0
      y: 0.0
      z: 0.000700872730343086
  covariance: [0.0, 0.0, 0.0, 0.0, 0.0, 0.0, 0.0, 0.0, 0.0, 0.0, 0.0, 0.0, 0.0, 0.0, 0.0, 0.0, 0.0, 0.0, 0.0, 0.0, 0.0, 0.0, 0.0, 0.0, 0.0, 0.0, 0.0, 0.0, 0.0, 0.0, 0.0, 0.0, 0.0, 0.0, 0.0, 0.0]
---
header: 
  seq: 21781
  stamp: 
    secs: 726
    nsecs: 243000000
  frame_id: "odom"
child_frame_id: "base_footprint"
pose: 
  pose: 
    position: 
      x: 0.9132488373318747
      y: 3.4825036033474523
      z: -0.001007928153110526
    orientation: 
      x: -8.637148750891326e-05
      y: 0.0015890143443402388
      z: 0.053921320903411174
      w: 0.9985439192771699
  covariance: [1e-05, 0.0, 0.0, 0.0, 0.0, 0.0, 0.0, 1e-05, 0.0, 0.0, 0.0, 0.0, 0.0, 0.0, 1000000000000.0, 0.0, 0.0, 0.0, 0.0, 0.0, 0.0, 1000000000000.0, 0.0, 0.0, 0.0, 0.0, 0.0, 0.0, 1000000000000.0, 0.0, 0.0, 0.0, 0.0, 0.0, 0.0, 0.001]
twist: 
  twist: 
    linear: 
      x: -2.5733845353240505e-05
      y: 1.305909656549577e-06
      z: 0.0
    angular: 
      x: 0.0
      y: 0.0
      z: 0.0007009439128083722
  covariance: [0.0, 0.0, 0.0, 0.0, 0.0, 0.0, 0.0, 0.0, 0.0, 0.0, 0.0, 0.0, 0.0, 0.0, 0.0, 0.0, 0.0, 0.0, 0.0, 0.0, 0.0, 0.0, 0.0, 0.0, 0.0, 0.0, 0.0, 0.0, 0.0, 0.0, 0.0, 0.0, 0.0, 0.0, 0.0, 0.0]
---
header: 
  seq: 21782
  stamp: 
    secs: 726
    nsecs: 276000000
  frame_id: "odom"
child_frame_id: "base_footprint"
pose: 
  pose: 
    position: 
      x: 0.9132479960740478
      y: 3.4825035089124334
      z: -0.0010079282348026374
    orientation: 
      x: -8.638713319497542e-05
      y: 0.0015890137485775721
      z: 0.053931161837488875
      w: 0.9985433878181902
  covariance: [1e-05, 0.0, 0.0, 0.0, 0.0, 0.0, 0.0, 1e-05, 0.0, 0.0, 0.0, 0.0, 0.0, 0.0, 1000000000000.0, 0.0, 0.0, 0.0, 0.0, 0.0, 0.0, 1000000000000.0, 0.0, 0.0, 0.0, 0.0, 0.0, 0.0, 1000000000000.0, 0.0, 0.0, 0.0, 0.0, 0.0, 0.0, 0.001]
twist: 
  twist: 
    linear: 
      x: -2.5766579854205498e-05
      y: 1.3058288398520575e-06
      z: 0.0
    angular: 
      x: 0.0
      y: 0.0
      z: 0.0007010151739044689
  covariance: [0.0, 0.0, 0.0, 0.0, 0.0, 0.0, 0.0, 0.0, 0.0, 0.0, 0.0, 0.0, 0.0, 0.0, 0.0, 0.0, 0.0, 0.0, 0.0, 0.0, 0.0, 0.0, 0.0, 0.0, 0.0, 0.0, 0.0, 0.0, 0.0, 0.0, 0.0, 0.0, 0.0, 0.0, 0.0, 0.0]
---
header: 
  seq: 21783
  stamp: 
    secs: 726
    nsecs: 310000000
  frame_id: "odom"
child_frame_id: "base_footprint"
pose: 
  pose: 
    position: 
      x: 0.9132471282812977
      y: 3.482503411484367
      z: -0.0010079283190010738
    orientation: 
      x: -8.640325500792872e-05
      y: 0.0015890131345825053
      z: 0.05394130220650061
      w: 0.9985428400864947
  covariance: [1e-05, 0.0, 0.0, 0.0, 0.0, 0.0, 0.0, 1e-05, 0.0, 0.0, 0.0, 0.0, 0.0, 0.0, 1000000000000.0, 0.0, 0.0, 0.0, 0.0, 0.0, 0.0, 1000000000000.0, 0.0, 0.0, 0.0, 0.0, 0.0, 0.0, 1000000000000.0, 0.0, 0.0, 0.0, 0.0, 0.0, 0.0, 0.001]
twist: 
  twist: 
    linear: 
      x: -2.5800308004869646e-05
      y: 1.3057455109901957e-06
      z: 0.0
    angular: 
      x: 0.0
      y: 0.0
      z: 0.0007010886842623205
  covariance: [0.0, 0.0, 0.0, 0.0, 0.0, 0.0, 0.0, 0.0, 0.0, 0.0, 0.0, 0.0, 0.0, 0.0, 0.0, 0.0, 0.0, 0.0, 0.0, 0.0, 0.0, 0.0, 0.0, 0.0, 0.0, 0.0, 0.0, 0.0, 0.0, 0.0, 0.0, 0.0, 0.0, 0.0, 0.0, 0.0]
---
header: 
  seq: 21784
  stamp: 
    secs: 726
    nsecs: 343000000
  frame_id: "odom"
child_frame_id: "base_footprint"
pose: 
  pose: 
    position: 
      x: 0.9132462850002426
      y: 3.482503316794272
      z: -0.0010079284007533246
    orientation: 
      x: -8.641890460691033e-05
      y: 0.001589012538473386
      z: 0.05395114551940061
      w: 0.9985423083014912
  covariance: [1e-05, 0.0, 0.0, 0.0, 0.0, 0.0, 0.0, 1e-05, 0.0, 0.0, 0.0, 0.0, 0.0, 0.0, 1000000000000.0, 0.0, 0.0, 0.0, 0.0, 0.0, 0.0, 1000000000000.0, 0.0, 0.0, 0.0, 0.0, 0.0, 0.0, 1000000000000.0, 0.0, 0.0, 0.0, 0.0, 0.0, 0.0, 0.001]
twist: 
  twist: 
    linear: 
      x: -2.583304317919014e-05
      y: 1.305664336872261e-06
      z: 0.0
    angular: 
      x: 0.0
      y: 0.0
      z: 0.0007011601147564543
  covariance: [0.0, 0.0, 0.0, 0.0, 0.0, 0.0, 0.0, 0.0, 0.0, 0.0, 0.0, 0.0, 0.0, 0.0, 0.0, 0.0, 0.0, 0.0, 0.0, 0.0, 0.0, 0.0, 0.0, 0.0, 0.0, 0.0, 0.0, 0.0, 0.0, 0.0, 0.0, 0.0, 0.0, 0.0, 0.0, 0.0]
---
header: 
  seq: 21785
  stamp: 
    secs: 726
    nsecs: 376000000
  frame_id: "odom"
child_frame_id: "base_footprint"
pose: 
  pose: 
    position: 
      x: 0.9132454407226575
      y: 3.4825032219784755
      z: -0.0010079284825350553
    orientation: 
      x: -8.643455613662836e-05
      y: 0.0015890119421928927
      z: 0.05396099000582655
      w: 0.9985417763557549
  covariance: [1e-05, 0.0, 0.0, 0.0, 0.0, 0.0, 0.0, 1e-05, 0.0, 0.0, 0.0, 0.0, 0.0, 0.0, 1000000000000.0, 0.0, 0.0, 0.0, 0.0, 0.0, 0.0, 1000000000000.0, 0.0, 0.0, 0.0, 0.0, 0.0, 0.0, 1000000000000.0, 0.0, 0.0, 0.0, 0.0, 0.0, 0.0, 0.001]
twist: 
  twist: 
    linear: 
      x: -2.5865778614002713e-05
      y: 1.3055836218640484e-06
      z: 0.0
    angular: 
      x: 0.0
      y: 0.0
      z: 0.0007012316290746718
  covariance: [0.0, 0.0, 0.0, 0.0, 0.0, 0.0, 0.0, 0.0, 0.0, 0.0, 0.0, 0.0, 0.0, 0.0, 0.0, 0.0, 0.0, 0.0, 0.0, 0.0, 0.0, 0.0, 0.0, 0.0, 0.0, 0.0, 0.0, 0.0, 0.0, 0.0, 0.0, 0.0, 0.0, 0.0, 0.0, 0.0]
---
header: 
  seq: 21786
  stamp: 
    secs: 726
    nsecs: 410000000
  frame_id: "odom"
child_frame_id: "base_footprint"
pose: 
  pose: 
    position: 
      x: 0.913244569818604
      y: 3.4825031241579563
      z: -0.0010079285668261329
    orientation: 
      x: -8.645068397593901e-05
      y: 0.0015890113276647649
      z: 0.05397113403871522
      w: 0.9985412281222319
  covariance: [1e-05, 0.0, 0.0, 0.0, 0.0, 0.0, 0.0, 1e-05, 0.0, 0.0, 0.0, 0.0, 0.0, 0.0, 1000000000000.0, 0.0, 0.0, 0.0, 0.0, 0.0, 0.0, 1000000000000.0, 0.0, 0.0, 0.0, 0.0, 0.0, 0.0, 1000000000000.0, 0.0, 0.0, 0.0, 0.0, 0.0, 0.0, 0.001]
twist: 
  twist: 
    linear: 
      x: -2.589950817329806e-05
      y: 1.3055000035645203e-06
      z: 0.0
    angular: 
      x: 0.0
      y: 0.0
      z: 0.0007013053969317222
  covariance: [0.0, 0.0, 0.0, 0.0, 0.0, 0.0, 0.0, 0.0, 0.0, 0.0, 0.0, 0.0, 0.0, 0.0, 0.0, 0.0, 0.0, 0.0, 0.0, 0.0, 0.0, 0.0, 0.0, 0.0, 0.0, 0.0, 0.0, 0.0, 0.0, 0.0, 0.0, 0.0, 0.0, 0.0, 0.0, 0.0]
---
header: 
  seq: 21787
  stamp: 
    secs: 726
    nsecs: 443000000
  frame_id: "odom"
child_frame_id: "base_footprint"
pose: 
  pose: 
    position: 
      x: 0.9132437235177233
      y: 3.4825030290868177
      z: -0.0010079286486680966
    orientation: 
      x: -8.646633943090777e-05
      y: 0.0015890107310370086
      z: 0.05398098091151936
      w: 0.9985406958498483
  covariance: [1e-05, 0.0, 0.0, 0.0, 0.0, 0.0, 0.0, 1e-05, 0.0, 0.0, 0.0, 0.0, 0.0, 0.0, 1000000000000.0, 0.0, 0.0, 0.0, 0.0, 0.0, 0.0, 1000000000000.0, 0.0, 0.0, 0.0, 0.0, 0.0, 0.0, 1000000000000.0, 0.0, 0.0, 0.0, 0.0, 0.0, 0.0, 0.001]
twist: 
  twist: 
    linear: 
      x: -2.5932244445660496e-05
      y: 1.3054191188669477e-06
      z: 0.0
    angular: 
      x: 0.0
      y: 0.0
      z: 0.0007013770793055389
  covariance: [0.0, 0.0, 0.0, 0.0, 0.0, 0.0, 0.0, 0.0, 0.0, 0.0, 0.0, 0.0, 0.0, 0.0, 0.0, 0.0, 0.0, 0.0, 0.0, 0.0, 0.0, 0.0, 0.0, 0.0, 0.0, 0.0, 0.0, 0.0, 0.0, 0.0, 0.0, 0.0, 0.0, 0.0, 0.0, 0.0]
---
header: 
  seq: 21788
  stamp: 
    secs: 726
    nsecs: 476000000
  frame_id: "odom"
child_frame_id: "base_footprint"
pose: 
  pose: 
    position: 
      x: 0.913242876220277
      y: 3.48250293388985
      z: -0.0010079287305397797
    orientation: 
      x: -8.64819968221744e-05
      y: 0.001589010134238175
      z: 0.0539908289615618
      w: 0.9985401634164252
  covariance: [1e-05, 0.0, 0.0, 0.0, 0.0, 0.0, 0.0, 1e-05, 0.0, 0.0, 0.0, 0.0, 0.0, 0.0, 1000000000000.0, 0.0, 0.0, 0.0, 0.0, 0.0, 0.0, 1000000000000.0, 0.0, 0.0, 0.0, 0.0, 0.0, 0.0, 1000000000000.0, 0.0, 0.0, 0.0, 0.0, 0.0, 0.0, 0.001]
twist: 
  twist: 
    linear: 
      x: -2.5964981108016692e-05
      y: 1.3053378604283326e-06
      z: 0.0
    angular: 
      x: 0.0
      y: 0.0
      z: 0.0007014488446142256
  covariance: [0.0, 0.0, 0.0, 0.0, 0.0, 0.0, 0.0, 0.0, 0.0, 0.0, 0.0, 0.0, 0.0, 0.0, 0.0, 0.0, 0.0, 0.0, 0.0, 0.0, 0.0, 0.0, 0.0, 0.0, 0.0, 0.0, 0.0, 0.0, 0.0, 0.0, 0.0, 0.0, 0.0, 0.0, 0.0, 0.0]
---
header: 
  seq: 21789
  stamp: 
    secs: 726
    nsecs: 510000000
  frame_id: "odom"
child_frame_id: "base_footprint"
pose: 
  pose: 
    position: 
      x: 0.9132420022048187
      y: 3.4825028356764696
      z: -0.0010079288149234013
    orientation: 
      x: -8.64981307074237e-05
      y: 0.0015890095191750137
      z: 0.05400097666995608
      w: 0.9985396146801149
  covariance: [1e-05, 0.0, 0.0, 0.0, 0.0, 0.0, 0.0, 1e-05, 0.0, 0.0, 0.0, 0.0, 0.0, 0.0, 1000000000000.0, 0.0, 0.0, 0.0, 0.0, 0.0, 0.0, 1000000000000.0, 0.0, 0.0, 0.0, 0.0, 0.0, 0.0, 1000000000000.0, 0.0, 0.0, 0.0, 0.0, 0.0, 0.0, 0.001]
twist: 
  twist: 
    linear: 
      x: -2.599871030260677e-05
      y: 1.305254532284279e-06
      z: 0.0
    angular: 
      x: 0.0
      y: 0.0
      z: 0.0007015228709172284
  covariance: [0.0, 0.0, 0.0, 0.0, 0.0, 0.0, 0.0, 0.0, 0.0, 0.0, 0.0, 0.0, 0.0, 0.0, 0.0, 0.0, 0.0, 0.0, 0.0, 0.0, 0.0, 0.0, 0.0, 0.0, 0.0, 0.0, 0.0, 0.0, 0.0, 0.0, 0.0, 0.0, 0.0, 0.0, 0.0, 0.0]
---
header: 
  seq: 21790
  stamp: 
    secs: 726
    nsecs: 543000000
  frame_id: "odom"
child_frame_id: "base_footprint"
pose: 
  pose: 
    position: 
      x: 0.9132411528840109
      y: 3.482502740223893
      z: -0.001007928896855307
    orientation: 
      x: -8.651379203651824e-05
      y: 0.0015890089220278525
      z: 0.054010827113934
      w: 0.9985390819194202
  covariance: [1e-05, 0.0, 0.0, 0.0, 0.0, 0.0, 0.0, 1e-05, 0.0, 0.0, 0.0, 0.0, 0.0, 0.0, 1000000000000.0, 0.0, 0.0, 0.0, 0.0, 0.0, 0.0, 1000000000000.0, 0.0, 0.0, 0.0, 0.0, 0.0, 0.0, 1000000000000.0, 0.0, 0.0, 0.0, 0.0, 0.0, 0.0, 0.001]
twist: 
  twist: 
    linear: 
      x: -2.6031449323008625e-05
      y: 1.3051732645302598e-06
      z: 0.0
    angular: 
      x: 0.0
      y: 0.0
      z: 0.0007015948044564499
  covariance: [0.0, 0.0, 0.0, 0.0, 0.0, 0.0, 0.0, 0.0, 0.0, 0.0, 0.0, 0.0, 0.0, 0.0, 0.0, 0.0, 0.0, 0.0, 0.0, 0.0, 0.0, 0.0, 0.0, 0.0, 0.0, 0.0, 0.0, 0.0, 0.0, 0.0, 0.0, 0.0, 0.0, 0.0, 0.0, 0.0]
---
header: 
  seq: 21791
  stamp: 
    secs: 726
    nsecs: 576000000
  frame_id: "odom"
child_frame_id: "base_footprint"
pose: 
  pose: 
    position: 
      x: 0.9132403025666059
      y: 3.4825026446453533
      z: -0.0010079289788168695
    orientation: 
      x: -8.65294553082491e-05
      y: 0.0015890083247088347
      z: 0.05402067873887634
      w: 0.9985385489973778
